{"type": "FeatureCollection", "features": [{"type": "Feature", "geometry": {"type": "Point", "coordinates": [-71.581108, 43.191163]}, "properties": {"id": 42, "Tree ID": "G-042", "Numerical ID": 42, "Botanical Name": "Abies concolor", "Common Name": "White Fir", "DBH (inches)": 5.0, "DBH Info": "5", "General Health": "F", "Notes": ""}}, {"type": "Feature", "geometry": {"type": "Point", "coordinates": [-71.581064, 43.191122]}, "properties": {"id": 43, "Tree ID": "G-043", "Numerical ID": 43, "Botanical Name": "Carya ovata", "Common Name": "Shagbark Hickory", "DBH (inches)": 14.0, "DBH Info": "14", "General Health": "VG", "Notes": ""}}, {"type": "Feature", "geometry": {"type": "Point", "coordinates": [-71.580371, 43.191637]}, "properties": {"id": 65, "Tree ID": "G-065", "Numerical ID": 65, "Botanical Name": "Pinus strobus", "Common Name": "Eastern White Pine", "DBH (inches)": 18.0, "DBH Info": "18", "General Health": "G", "Notes": ""}}, {"type": "Feature", "geometry": {"type": "Point", "coordinates": [-71.580298, 43.191617]}, "properties": {"id": 66, "Tree ID": "G-066", "Numerical ID": 66, "Botanical Name": "Pinus strobus", "Common Name": "Eastern White Pine", "DBH (inches)": 24.0, "DBH Info": "24", "General Health": "G", "Notes": ""}}, {"type": "Feature", "geometry": {"type": "Point", "coordinates": [-71.580326, 43.191681]}, "properties": {"id": 67, "Tree ID": "G-067", "Numerical ID": 67, "Botanical Name": "Acer rubrum", "Common Name": "Red Maple", "DBH (inches)": 18.0, "DBH Info": "18", "General Health": "G", "Notes": ""}}, {"type": "Feature", "geometry": {"type": "Point", "coordinates": [-71.580406, 43.191735]}, "properties": {"id": 68, "Tree ID": "G-068", "Numerical ID": 68, "Botanical Name": "Acer rubrum", "Common Name": "Red Maple", "DBH (inches)": 18.0, "DBH Info": "18", "General Health": "G", "Notes": ""}}, {"type": "Feature", "geometry": {"type": "Point", "coordinates": [-71.580483, 43.191789]}, "properties": {"id": 69, "Tree ID": "G-069", "Numerical ID": 69, "Botanical Name": "Acer rubrum", "Common Name": "Red Maple", "DBH (inches)": 18.0, "DBH Info": "18", "General Health": "G", "Notes": ""}}, {"type": "Feature", "geometry": {"type": "Point", "coordinates": [-71.58056, 43.191843]}, "properties": {"id": 70, "Tree ID": "G-070", "Numerical ID": 70, "Botanical Name": "Acer rubrum", "Common Name": "Red Maple", "DBH (inches)": 18.0, "DBH Info": "18", "General Health": "G", "Notes": ""}}, {"type": "Feature", "geometry": {"type": "Point", "coordinates": [-71.581593, 43.191949]}, "properties": {"id": 1, "Tree ID": "G-001", "Numerical ID": 1, "Botanical Name": "Gleditsia triacanthos", "Common Name": "Honeylocust", "DBH (inches)": 4.0, "DBH Info": "4", "General Health": "F", "Notes": ""}}, {"type": "Feature", "geometry": {"type": "Point", "coordinates": [-71.581436, 43.191793]}, "properties": {"id": 2, "Tree ID": "G-002", "Numerical ID": 2, "Botanical Name": "Quercus rubra", "Common Name": "Red Oak", "DBH (inches)": 10.0, "DBH Info": "10", "General Health": "G", "Notes": ""}}, {"type": "Feature", "geometry": {"type": "Point", "coordinates": [-71.581499, 43.191743]}, "properties": {"id": 3, "Tree ID": "G-003", "Numerical ID": 3, "Botanical Name": "Picca abies", "Common Name": "Norway Spruce", "DBH (inches)": 6.0, "DBH Info": "6", "General Health": "VG", "Notes": ""}}, {"type": "Feature", "geometry": {"type": "Point", "coordinates": [-71.5815, 43.191677]}, "properties": {"id": 4, "Tree ID": "G-004", "Numerical ID": 4, "Botanical Name": "Pinus strobus", "Common Name": "Eastern White Pine", "DBH (inches)": 6.0, "DBH Info": "6", "General Health": "G", "Notes": ""}}, {"type": "Feature", "geometry": {"type": "Point", "coordinates": [-71.581596, 43.191666]}, "properties": {"id": 5, "Tree ID": "G-005", "Numerical ID": 5, "Botanical Name": "Picca abies", "Common Name": "Norway Spruce", "DBH (inches)": 6.0, "DBH Info": "6", "General Health": "G", "Notes": ""}}, {"type": "Feature", "geometry": {"type": "Point", "coordinates": [-71.581645, 43.191629]}, "properties": {"id": 6, "Tree ID": "G-006", "Numerical ID": 6, "Botanical Name": "Pinus strobus", "Common Name": "Eastern White Pine", "DBH (inches)": 6.0, "DBH Info": "6", "General Health": "G", "Notes": ""}}, {"type": "Feature", "geometry": {"type": "Point", "coordinates": [-71.581648, 43.191564]}, "properties": {"id": 7, "Tree ID": "G-007", "Numerical ID": 7, "Botanical Name": "Picca abies", "Common Name": "Norway Spruce", "DBH (inches)": 6.0, "DBH Info": "6", "General Health": "G", "Notes": ""}}, {"type": "Feature", "geometry": {"type": "Point", "coordinates": [-71.582046, 43.191342]}, "properties": {"id": 12, "Tree ID": "G-012", "Numerical ID": 12, "Botanical Name": "Pinus strobus", "Common Name": "Eastern White Pine", "DBH (inches)": 5.0, "DBH Info": "5", "General Health": "G", "Notes": ""}}, {"type": "Feature", "geometry": {"type": "Point", "coordinates": [-71.582039, 43.191293]}, "properties": {"id": 13, "Tree ID": "G-013", "Numerical ID": 13, "Botanical Name": "Picca abies", "Common Name": "Norway Spruce", "DBH (inches)": 6.0, "DBH Info": "6", "General Health": "G", "Notes": ""}}, {"type": "Feature", "geometry": {"type": "Point", "coordinates": [-71.582074, 43.19127]}, "properties": {"id": 14, "Tree ID": "G-014", "Numerical ID": 14, "Botanical Name": "Picca abies", "Common Name": "Norway Spruce", "DBH (inches)": 6.0, "DBH Info": "6", "General Health": "G", "Notes": ""}}, {"type": "Feature", "geometry": {"type": "Point", "coordinates": [-71.581939, 43.191366]}, "properties": {"id": 11, "Tree ID": "G-011", "Numerical ID": 11, "Botanical Name": "Picca abies", "Common Name": "Norway Spruce", "DBH (inches)": 5.0, "DBH Info": "5", "General Health": "F", "Notes": ""}}, {"type": "Feature", "geometry": {"type": "Point", "coordinates": [-71.581911, 43.191436]}, "properties": {"id": 10, "Tree ID": "G-010", "Numerical ID": 10, "Botanical Name": "Pinus strobus", "Common Name": "Eastern White Pine", "DBH (inches)": 6.0, "DBH Info": "6", "General Health": "P", "Notes": ""}}, {"type": "Feature", "geometry": {"type": "Point", "coordinates": [-71.581838, 43.191489]}, "properties": {"id": 9, "Tree ID": "G-009", "Numerical ID": 9, "Botanical Name": "Picca abies", "Common Name": "Norway Spruce", "DBH (inches)": 8.0, "DBH Info": "8", "General Health": "G", "Notes": ""}}, {"type": "Feature", "geometry": {"type": "Point", "coordinates": [-71.581762, 43.191545]}, "properties": {"id": 8, "Tree ID": "G-008", "Numerical ID": 8, "Botanical Name": "Pinus strobus", "Common Name": "Eastern White Pine", "DBH (inches)": 8.0, "DBH Info": "8", "General Health": "G", "Notes": ""}}, {"type": "Feature", "geometry": {"type": "Point", "coordinates": [-71.58429, 43.192289]}, "properties": {"id": 15, "Tree ID": "G-015", "Numerical ID": 15, "Botanical Name": "Malus sp.", "Common Name": "Crabapple", "DBH (inches)": 7.0, "DBH Info": "7", "General Health": "VG", "Notes": ""}}, {"type": "Feature", "geometry": {"type": "Point", "coordinates": [-71.58438, 43.192233]}, "properties": {"id": 16, "Tree ID": "G-016", "Numerical ID": 16, "Botanical Name": "Acer saccharum", "Common Name": "Sugar Maple", "DBH (inches)": 10.0, "DBH Info": "10", "General Health": "VG", "Notes": ""}}, {"type": "Feature", "geometry": {"type": "Point", "coordinates": [-71.584481, 43.192462]}, "properties": {"id": 17, "Tree ID": "G-017", "Numerical ID": 17, "Botanical Name": "Acer saccharum", "Common Name": "Sugar Maple", "DBH (inches)": 12.0, "DBH Info": "12", "General Health": "G", "Notes": ""}}, {"type": "Feature", "geometry": {"type": "Point", "coordinates": [-71.584564, 43.193094]}, "properties": {"id": 18, "Tree ID": "G-018", "Numerical ID": 18, "Botanical Name": "Picca abies", "Common Name": "Norway Spruce", "DBH (inches)": 24.0, "DBH Info": "24", "General Health": "VG", "Notes": ""}}, {"type": "Feature", "geometry": {"type": "Point", "coordinates": [-71.58468, 43.193196]}, "properties": {"id": 19, "Tree ID": "G-019", "Numerical ID": 19, "Botanical Name": "Malus sp.", "Common Name": "Crabapple", "DBH (inches)": 6.0, "DBH Info": "6", "General Health": "VG", "Notes": ""}}, {"type": "Feature", "geometry": {"type": "Point", "coordinates": [-71.584828, 43.193058]}, "properties": {"id": 20, "Tree ID": "G-020", "Numerical ID": 20, "Botanical Name": "Malus sp.", "Common Name": "Apple variety", "DBH (inches)": 24.0, "DBH Info": "24", "General Health": "P", "Notes": ""}}, {"type": "Feature", "geometry": {"type": "Point", "coordinates": [-71.585018, 43.193162]}, "properties": {"id": 21, "Tree ID": "G-021", "Numerical ID": 21, "Botanical Name": "Juniperus virginiana", "Common Name": "Eastern Red Cedar", "DBH (inches)": 4.0, "DBH Info": "4", "General Health": "VG", "Notes": ""}}, {"type": "Feature", "geometry": {"type": "Point", "coordinates": [-71.58502, 43.193134]}, "properties": {"id": 22, "Tree ID": "G-022", "Numerical ID": 22, "Botanical Name": "Juniperus virginiana", "Common Name": "Eastern Red Cedar", "DBH (inches)": 4.0, "DBH Info": "4", "General Health": "VG", "Notes": ""}}, {"type": "Feature", "geometry": {"type": "Point", "coordinates": [-71.585022, 43.193107]}, "properties": {"id": 23, "Tree ID": "G-023", "Numerical ID": 23, "Botanical Name": "Juniperus virginiana", "Common Name": "Eastern Red Cedar", "DBH (inches)": 4.0, "DBH Info": "4", "General Health": "VG", "Notes": ""}}, {"type": "Feature", "geometry": {"type": "Point", "coordinates": [-71.585025, 43.193079]}, "properties": {"id": 24, "Tree ID": "G-024", "Numerical ID": 24, "Botanical Name": "Juniperus virginiana", "Common Name": "Eastern Red Cedar", "DBH (inches)": 4.0, "DBH Info": "4", "General Health": "VG", "Notes": ""}}, {"type": "Feature", "geometry": {"type": "Point", "coordinates": [-71.585028, 43.19305]}, "properties": {"id": 25, "Tree ID": "G-025", "Numerical ID": 25, "Botanical Name": "Juniperus virginiana", "Common Name": "Eastern Red Cedar", "DBH (inches)": 4.0, "DBH Info": "4", "General Health": "VG", "Notes": ""}}, {"type": "Feature", "geometry": {"type": "Point", "coordinates": [-71.585207, 43.193325]}, "properties": {"id": 26, "Tree ID": "G-026", "Numerical ID": 26, "Botanical Name": "Acer saccharum", "Common Name": "Sugar Maple", "DBH (inches)": 4.0, "DBH Info": "4", "General Health": "VG", "Notes": ""}}, {"type": "Feature", "geometry": {"type": "Point", "coordinates": [-71.585466, 43.193316]}, "properties": {"id": 27, "Tree ID": "G-027", "Numerical ID": 27, "Botanical Name": "Quercus rubra", "Common Name": "Red Oak", "DBH (inches)": 4.0, "DBH Info": "4", "General Health": "VG", "Notes": ""}}, {"type": "Feature", "geometry": {"type": "Point", "coordinates": [-71.585378, 43.193118]}, "properties": {"id": 28, "Tree ID": "G-028", "Numerical ID": 28, "Botanical Name": "Ostrya Virginiana", "Common Name": "American Hophornbeam", "DBH (inches)": 4.0, "DBH Info": "4", "General Health": "VG", "Notes": ""}}, {"type": "Feature", "geometry": {"type": "Point", "coordinates": [-71.585213, 43.193093]}, "properties": {"id": 29, "Tree ID": "G-029", "Numerical ID": 29, "Botanical Name": "Ostrya Virginiana", "Common Name": "American Hophornbeam", "DBH (inches)": 4.0, "DBH Info": "4", "General Health": "VG", "Notes": ""}}, {"type": "Feature", "geometry": {"type": "Point", "coordinates": [-71.585119, 43.193101]}, "properties": {"id": 30, "Tree ID": "G-030", "Numerical ID": 30, "Botanical Name": "Betula papyrifera", "Common Name": "Paper Birch", "DBH (inches)": 8, "DBH Info": "Clump 4", "General Health": "VG", "Notes": ""}}, {"type": "Feature", "geometry": {"type": "Point", "coordinates": [-71.584953, 43.192959]}, "properties": {"id": 31, "Tree ID": "G-031", "Numerical ID": 31, "Botanical Name": "Picea abies", "Common Name": "Norway Spruce", "DBH (inches)": 8, "DBH Info": "60+", "General Health": "VG", "Notes": ""}}, {"type": "Feature", "geometry": {"type": "Point", "coordinates": [-71.584596, 43.192394]}, "properties": {"id": 33, "Tree ID": "G-033", "Numerical ID": 33, "Botanical Name": "Prunus var.", "Common Name": "Flowering Cherry variety", "DBH (inches)": 8, "DBH Info": "1 1/2", "General Health": "G", "Notes": ""}}, {"type": "Feature", "geometry": {"type": "Point", "coordinates": [-71.584728, 43.192317]}, "properties": {"id": 32, "Tree ID": "G-032", "Numerical ID": 32, "Botanical Name": "Prunus var.", "Common Name": "Flowering Cherry variety", "DBH (inches)": 8, "DBH Info": "1 1/2", "General Health": "G", "Notes": ""}}, {"type": "Feature", "geometry": {"type": "Point", "coordinates": [-71.581645, 43.191055]}, "properties": {"id": 34, "Tree ID": "G-034", "Numerical ID": 34, "Botanical Name": "Acer rubrum", "Common Name": "Red Maple", "DBH (inches)": 18.0, "DBH Info": "18", "General Health": "F", "Notes": ""}}, {"type": "Feature", "geometry": {"type": "Point", "coordinates": [-71.581406, 43.191075]}, "properties": {"id": 35, "Tree ID": "G-035", "Numerical ID": 35, "Botanical Name": "Syringe reticulata", "Common Name": "Japanese Tree Lilac", "DBH (inches)": 8.0, "DBH Info": "8", "General Health": "VG", "Notes": ""}}, {"type": "Feature", "geometry": {"type": "Point", "coordinates": [-71.58145, 43.190968]}, "properties": {"id": 36, "Tree ID": "G-036", "Numerical ID": 36, "Botanical Name": "Pinus strobus", "Common Name": "Eastern White Pine", "DBH (inches)": 30.0, "DBH Info": "30", "General Health": "VG", "Notes": ""}}, {"type": "Feature", "geometry": {"type": "Point", "coordinates": [-71.581344, 43.190842]}, "properties": {"id": 37, "Tree ID": "G-037", "Numerical ID": 37, "Botanical Name": "Carya ovata", "Common Name": "Shagbark Hickory", "DBH (inches)": 36.0, "DBH Info": "36", "General Health": "VG", "Notes": ""}}, {"type": "Feature", "geometry": {"type": "Point", "coordinates": [-71.581188, 43.190957]}, "properties": {"id": 38, "Tree ID": "G-038", "Numerical ID": 38, "Botanical Name": "Pinus strobus", "Common Name": "Eastern White Pine", "DBH (inches)": 36.0, "DBH Info": "36", "General Health": "F", "Notes": ""}}, {"type": "Feature", "geometry": {"type": "Point", "coordinates": [-71.581296, 43.19129]}, "properties": {"id": 39, "Tree ID": "G-039", "Numerical ID": 39, "Botanical Name": "Picea pungens", "Common Name": "Colorado Blue Spruce", "DBH (inches)": 8.0, "DBH Info": "8", "General Health": "VG", "Notes": ""}}, {"type": "Feature", "geometry": {"type": "Point", "coordinates": [-71.580883, 43.191256]}, "properties": {"id": 47, "Tree ID": "G-047", "Numerical ID": 47, "Botanical Name": "Quercus rubra", "Common Name": "Red Oak", "DBH (inches)": 30.0, "DBH Info": "30", "General Health": "VG", "Notes": ""}}, {"type": "Feature", "geometry": {"type": "Point", "coordinates": [-71.580976, 43.19119]}, "properties": {"id": 45, "Tree ID": "G-045", "Numerical ID": 45, "Botanical Name": "Quercus rubra", "Common Name": "Red Oak", "DBH (inches)": 36.0, "DBH Info": "36", "General Health": "VG", "Notes": ""}}, {"type": "Feature", "geometry": {"type": "Point", "coordinates": [-71.58087, 43.19118]}, "properties": {"id": 46, "Tree ID": "G-046", "Numerical ID": 46, "Botanical Name": "Quercus rubra", "Common Name": "Red Oak", "DBH (inches)": 30.0, "DBH Info": "30", "General Health": "VG", "Notes": ""}}, {"type": "Feature", "geometry": {"type": "Point", "coordinates": [-71.580977, 43.191105]}, "properties": {"id": 44, "Tree ID": "G-044", "Numerical ID": 44, "Botanical Name": "Quercus rubra", "Common Name": "Red Oak", "DBH (inches)": 36.0, "DBH Info": "36", "General Health": "VG", "Notes": ""}}, {"type": "Feature", "geometry": {"type": "Point", "coordinates": [-71.58115, 43.191133]}, "properties": {"id": 41, "Tree ID": "G-041", "Numerical ID": 41, "Botanical Name": "Abies concolor", "Common Name": "White Fir", "DBH (inches)": 5.0, "DBH Info": "5", "General Health": "F", "Notes": ""}}, {"type": "Feature", "geometry": {"type": "Point", "coordinates": [-71.581194, 43.191169]}, "properties": {"id": 40, "Tree ID": "G-040", "Numerical ID": 40, "Botanical Name": "Abies concolor", "Common Name": "White Fir", "DBH (inches)": 5.0, "DBH Info": "5", "General Health": "F", "Notes": ""}}, {"type": "Feature", "geometry": {"type": "Point", "coordinates": [-71.581034, 43.191421]}, "properties": {"id": 48, "Tree ID": "G-048", "Numerical ID": 48, "Botanical Name": "Abies concolor", "Common Name": "White Fir", "DBH (inches)": 10.0, "DBH Info": "10", "General Health": "G", "Notes": ""}}, {"type": "Feature", "geometry": {"type": "Point", "coordinates": [-71.581033, 43.191508]}, "properties": {"id": 49, "Tree ID": "G-049", "Numerical ID": 49, "Botanical Name": "Abies concolor", "Common Name": "White Fir", "DBH (inches)": 10.0, "DBH Info": "10", "General Health": "G", "Notes": ""}}, {"type": "Feature", "geometry": {"type": "Point", "coordinates": [-71.58116, 43.191693]}, "properties": {"id": 50, "Tree ID": "G-050", "Numerical ID": 50, "Botanical Name": "Abies concolor", "Common Name": "White Fir", "DBH (inches)": 8.0, "DBH Info": "8", "General Health": "VG", "Notes": ""}}, {"type": "Feature", "geometry": {"type": "Point", "coordinates": [-71.581113, 43.19172]}, "properties": {"id": 51, "Tree ID": "G-051", "Numerical ID": 51, "Botanical Name": "Abies concolor", "Common Name": "White Fir", "DBH (inches)": 8.0, "DBH Info": "8", "General Health": "G", "Notes": ""}}, {"type": "Feature", "geometry": {"type": "Point", "coordinates": [-71.58107, 43.191745]}, "properties": {"id": 52, "Tree ID": "G-052", "Numerical ID": 52, "Botanical Name": "Abies concolor", "Common Name": "White Fir", "DBH (inches)": 8.0, "DBH Info": "8", "General Health": "G", "Notes": ""}}, {"type": "Feature", "geometry": {"type": "Point", "coordinates": [-71.581029, 43.19177]}, "properties": {"id": 53, "Tree ID": "G-053", "Numerical ID": 53, "Botanical Name": "Abies concolor", "Common Name": "White Fir", "DBH (inches)": 8.0, "DBH Info": "8", "General Health": "G", "Notes": ""}}, {"type": "Feature", "geometry": {"type": "Point", "coordinates": [-71.580989, 43.191795]}, "properties": {"id": 75, "Tree ID": "G-075", "Numerical ID": 75, "Botanical Name": "Pyrus calleryana", "Common Name": "Bradford Pear", "DBH (inches)": 4.0, "DBH Info": "4", "General Health": "G", "Notes": ""}}, {"type": "Feature", "geometry": {"type": "Point", "coordinates": [-71.580737, 43.191281]}, "properties": {"id": 54, "Tree ID": "G-054", "Numerical ID": 54, "Botanical Name": "Quercus rubra", "Common Name": "Red Oak", "DBH (inches)": 30.0, "DBH Info": "30", "General Health": "G", "Notes": ""}}, {"type": "Feature", "geometry": {"type": "Point", "coordinates": [-71.58077, 43.191344]}, "properties": {"id": 55, "Tree ID": "G-055", "Numerical ID": 55, "Botanical Name": "Carya ovata", "Common Name": "Shagbark Hickory", "DBH (inches)": 18.0, "DBH Info": "18", "General Health": "VG", "Notes": ""}}, {"type": "Feature", "geometry": {"type": "Point", "coordinates": [-71.580721, 43.191382]}, "properties": {"id": 56, "Tree ID": "G-056", "Numerical ID": 56, "Botanical Name": "Ulmus americana", "Common Name": "American Elm", "DBH (inches)": 12.0, "DBH Info": "12", "General Health": "G", "Notes": ""}}, {"type": "Feature", "geometry": {"type": "Point", "coordinates": [-71.580652, 43.191427]}, "properties": {"id": 57, "Tree ID": "G-057", "Numerical ID": 57, "Botanical Name": "Acer rubrum", "Common Name": "Red Maple", "DBH (inches)": 18.0, "DBH Info": "18", "General Health": "P", "Notes": ""}}, {"type": "Feature", "geometry": {"type": "Point", "coordinates": [-71.580561, 43.191409]}, "properties": {"id": 58, "Tree ID": "G-058", "Numerical ID": 58, "Botanical Name": "Acer rubrum", "Common Name": "Red Maple", "DBH (inches)": 18.0, "DBH Info": "18", "General Health": "G", "Notes": ""}}, {"type": "Feature", "geometry": {"type": "Point", "coordinates": [-71.580587, 43.191474]}, "properties": {"id": 59, "Tree ID": "G-059", "Numerical ID": 59, "Botanical Name": "Pinus strobus", "Common Name": "Eastern White Pine", "DBH (inches)": 8.0, "DBH Info": "8", "General Health": "F", "Notes": ""}}, {"type": "Feature", "geometry": {"type": "Point", "coordinates": [-71.580492, 43.191455]}, "properties": {"id": 60, "Tree ID": "G-060", "Numerical ID": 60, "Botanical Name": "Pinus strobus", "Common Name": "Eastern White Pine", "DBH (inches)": 8.0, "DBH Info": "8", "General Health": "F", "Notes": ""}}, {"type": "Feature", "geometry": {"type": "Point", "coordinates": [-71.580359, 43.191563]}, "properties": {"id": 64, "Tree ID": "G-064", "Numerical ID": 64, "Botanical Name": "Pinus strobus", "Common Name": "Eastern White Pine", "DBH (inches)": 18.0, "DBH Info": "18", "General Health": "G", "Notes": ""}}, {"type": "Feature", "geometry": {"type": "Point", "coordinates": [-71.580415, 43.191599]}, "properties": {"id": 63, "Tree ID": "G-063", "Numerical ID": 63, "Botanical Name": "Pinus strobus", "Common Name": "Eastern White Pine", "DBH (inches)": 30.0, "DBH Info": "30", "General Health": "G", "Notes": ""}}, {"type": "Feature", "geometry": {"type": "Point", "coordinates": [-71.580474, 43.191558]}, "properties": {"id": 62, "Tree ID": "G-062", "Numerical ID": 62, "Botanical Name": "Pinus strobus", "Common Name": "Eastern White Pine", "DBH (inches)": 30.0, "DBH Info": "30", "General Health": "G", "Notes": ""}}, {"type": "Feature", "geometry": {"type": "Point", "coordinates": [-71.580528, 43.191518]}, "properties": {"id": 61, "Tree ID": "G-061", "Numerical ID": 61, "Botanical Name": "Pinus strobus", "Common Name": "Eastern White Pine", "DBH (inches)": 24.0, "DBH Info": "24", "General Health": "F", "Notes": ""}}, {"type": "Feature", "geometry": {"type": "Point", "coordinates": [-71.580712, 43.191953]}, "properties": {"id": 72, "Tree ID": "G-072", "Numerical ID": 72, "Botanical Name": "Acer rubrum", "Common Name": "Red Maple", "DBH (inches)": 18.0, "DBH Info": "18", "General Health": "G", "Notes": ""}}, {"type": "Feature", "geometry": {"type": "Point", "coordinates": [-71.580637, 43.191897]}, "properties": {"id": 71, "Tree ID": "G-071", "Numerical ID": 71, "Botanical Name": "Acer rubrum", "Common Name": "Red Maple", "DBH (inches)": 18.0, "DBH Info": "18", "General Health": "G", "Notes": ""}}, {"type": "Feature", "geometry": {"type": "Point", "coordinates": [-71.580787, 43.191921]}, "properties": {"id": 74, "Tree ID": "G-074", "Numerical ID": 74, "Botanical Name": "Prunus var.", "Common Name": "Flowering Cherry variety", "DBH (inches)": 8, "DBH Info": "multi 6", "General Health": "F", "Notes": ""}}, {"type": "Feature", "geometry": {"type": "Point", "coordinates": [-71.580801, 43.191853]}, "properties": {"id": 73, "Tree ID": "G-073", "Numerical ID": 73, "Botanical Name": "Syringe reticulata", "Common Name": "Japanese Tree Lilac", "DBH (inches)": 5.0, "DBH Info": "5", "General Health": "F", "Notes": ""}}, {"type": "Feature", "geometry": {"type": "Point", "coordinates": [-71.581292, 43.191346]}, "properties": {"id": 76, "Tree ID": "G-076", "Numerical ID": 76, "Botanical Name": "Abies concolor", "Common Name": "White Fir", "DBH (inches)": 8.0, "DBH Info": "8", "General Health": "G", "Notes": ""}}, {"type": "Feature", "geometry": {"type": "Point", "coordinates": [-71.580128, 43.192183]}, "properties": {"id": 77, "Tree ID": "G-077", "Numerical ID": 77, "Botanical Name": "Halesia carolina", "Common Name": "Carolina Silverbell", "DBH (inches)": 5.0, "DBH Info": "5", "General Health": "VG", "Notes": ""}}, {"type": "Feature", "geometry": {"type": "Point", "coordinates": [-71.580862, 43.192368]}, "properties": {"id": 78, "Tree ID": "G-078", "Numerical ID": 78, "Botanical Name": "Tsuga canadensis", "Common Name": "Canada Hemlock", "DBH (inches)": 10.0, "DBH Info": "10", "General Health": "G", "Notes": ""}}, {"type": "Feature", "geometry": {"type": "Point", "coordinates": [-71.580723, 43.192408]}, "properties": {"id": 79, "Tree ID": "G-079", "Numerical ID": 79, "Botanical Name": "Tsuga canadensis", "Common Name": "Canada Hemlock", "DBH (inches)": 12.0, "DBH Info": "12", "General Health": "G", "Notes": ""}}, {"type": "Feature", "geometry": {"type": "Point", "coordinates": [-71.580763, 43.192605]}, "properties": {"id": 80, "Tree ID": "G-080", "Numerical ID": 80, "Botanical Name": "Cornus kousa", "Common Name": "Kousa Dogwood", "DBH (inches)": 3.0, "DBH Info": "3", "General Health": "E", "Notes": ""}}, {"type": "Feature", "geometry": {"type": "Point", "coordinates": [-71.580744, 43.192502]}, "properties": {"id": 81, "Tree ID": "G-081", "Numerical ID": 81, "Botanical Name": "Cornus kousa", "Common Name": "Kousa Dogwood", "DBH (inches)": 3.0, "DBH Info": "3", "General Health": "E", "Notes": ""}}, {"type": "Feature", "geometry": {"type": "Point", "coordinates": [-71.580836, 43.192531]}, "properties": {"id": 82, "Tree ID": "G-082", "Numerical ID": 82, "Botanical Name": "Cornus kousa", "Common Name": "Kousa Dogwood", "DBH (inches)": 3.0, "DBH Info": "3", "General Health": "E", "Notes": ""}}, {"type": "Feature", "geometry": {"type": "Point", "coordinates": [-71.580875, 43.192454]}, "properties": {"id": 83, "Tree ID": "G-083", "Numerical ID": 83, "Botanical Name": "Prunus var.", "Common Name": "Flowering Cherry variety", "DBH (inches)": 3.0, "DBH Info": "3", "General Health": "E", "Notes": ""}}, {"type": "Feature", "geometry": {"type": "Point", "coordinates": [-71.581007, 43.192467]}, "properties": {"id": 84, "Tree ID": "G-084", "Numerical ID": 84, "Botanical Name": "Prunus var.", "Common Name": "Flowering Cherry variety", "DBH (inches)": 3.0, "DBH Info": "3", "General Health": "E", "Notes": ""}}, {"type": "Feature", "geometry": {"type": "Point", "coordinates": [-71.581055, 43.192787]}, "properties": {"id": 85, "Tree ID": "G-085", "Numerical ID": 85, "Botanical Name": "Aesculus carnea", "Common Name": "Horse Chestnut", "DBH (inches)": 6.0, "DBH Info": "6", "General Health": "G", "Notes": ""}}, {"type": "Feature", "geometry": {"type": "Point", "coordinates": [-71.580781, 43.193565]}, "properties": {"id": 86, "Tree ID": "G-086", "Numerical ID": 86, "Botanical Name": "Betula nigra", "Common Name": "River Birch", "DBH (inches)": 10.0, "DBH Info": "10", "General Health": "E", "Notes": ""}}, {"type": "Feature", "geometry": {"type": "Point", "coordinates": [-71.580778, 43.193617]}, "properties": {"id": 87, "Tree ID": "G-087", "Numerical ID": 87, "Botanical Name": "Betula nigra", "Common Name": "River Birch", "DBH (inches)": 8.0, "DBH Info": "8", "General Health": "E", "Notes": ""}}, {"type": "Feature", "geometry": {"type": "Point", "coordinates": [-71.580708, 43.193631]}, "properties": {"id": 88, "Tree ID": "G-088", "Numerical ID": 88, "Botanical Name": "Betula nigra", "Common Name": "River Birch", "DBH (inches)": 10.0, "DBH Info": "10", "General Health": "E", "Notes": ""}}, {"type": "Feature", "geometry": {"type": "Point", "coordinates": [-71.580708, 43.193688]}, "properties": {"id": 89, "Tree ID": "G-089", "Numerical ID": 89, "Botanical Name": "Betula nigra", "Common Name": "River Birch", "DBH (inches)": 10.0, "DBH Info": "10", "General Health": "E", "Notes": ""}}, {"type": "Feature", "geometry": {"type": "Point", "coordinates": [-71.580601, 43.19371]}, "properties": {"id": 90, "Tree ID": "G-090", "Numerical ID": 90, "Botanical Name": "Betula nigra", "Common Name": "River Birch", "DBH (inches)": 8.0, "DBH Info": "8", "General Health": "E", "Notes": ""}}, {"type": "Feature", "geometry": {"type": "Point", "coordinates": [-71.58055, 43.193681]}, "properties": {"id": 91, "Tree ID": "G-091", "Numerical ID": 91, "Botanical Name": "Betula nigra", "Common Name": "River Birch", "DBH (inches)": 8.0, "DBH Info": "8", "General Health": "E", "Notes": ""}}, {"type": "Feature", "geometry": {"type": "Point", "coordinates": [-71.58055, 43.193635]}, "properties": {"id": 92, "Tree ID": "G-092", "Numerical ID": 92, "Botanical Name": "Betula nigra", "Common Name": "River Birch", "DBH (inches)": 10.0, "DBH Info": "10", "General Health": "E", "Notes": ""}}, {"type": "Feature", "geometry": {"type": "Point", "coordinates": [-71.580657, 43.193278]}, "properties": {"id": 93, "Tree ID": "G-093", "Numerical ID": 93, "Botanical Name": "Aesculus carnea", "Common Name": "Horse Chestnut", "DBH (inches)": 3.0, "DBH Info": "3", "General Health": "VG", "Notes": ""}}, {"type": "Feature", "geometry": {"type": "Point", "coordinates": [-71.580488, 43.193397]}, "properties": {"id": 94, "Tree ID": "G-094", "Numerical ID": 94, "Botanical Name": "Acer rubrum", "Common Name": "Red Maple", "DBH (inches)": 8, "DBH Info": "DBL 18", "General Health": "VG", "Notes": "Larry Collins identified as Euonymus sp. August 2017"}}, {"type": "Feature", "geometry": {"type": "Point", "coordinates": [-71.580486, 43.193267]}, "properties": {"id": 95, "Tree ID": "G-095", "Numerical ID": 95, "Botanical Name": "Prinus resinosa", "Common Name": "Red Pine", "DBH (inches)": 18.0, "DBH Info": "18", "General Health": "VG", "Notes": ""}}, {"type": "Feature", "geometry": {"type": "Point", "coordinates": [-71.580367, 43.193158]}, "properties": {"id": 96, "Tree ID": "G-096", "Numerical ID": 96, "Botanical Name": "Cornus florida", "Common Name": "Flowering Dogwood", "DBH (inches)": 8.0, "DBH Info": "8", "General Health": "G", "Notes": ""}}, {"type": "Feature", "geometry": {"type": "Point", "coordinates": [-71.580472, 43.193156]}, "properties": {"id": 97, "Tree ID": "G-097", "Numerical ID": 97, "Botanical Name": "Pinus strobus", "Common Name": "Eastern White Pine", "DBH (inches)": 12.0, "DBH Info": "12", "General Health": "G", "Notes": ""}}, {"type": "Feature", "geometry": {"type": "Point", "coordinates": [-71.580569, 43.193143]}, "properties": {"id": 98, "Tree ID": "G-098", "Numerical ID": 98, "Botanical Name": "Pinus strobus", "Common Name": "Eastern White Pine", "DBH (inches)": 12.0, "DBH Info": "12", "General Health": "G", "Notes": ""}}, {"type": "Feature", "geometry": {"type": "Point", "coordinates": [-71.58063, 43.193187]}, "properties": {"id": 99, "Tree ID": "G-099", "Numerical ID": 99, "Botanical Name": "Stewartia pseudocamellia", "Common Name": "Japanese Stewartia", "DBH (inches)": 8, "DBH Info": "DBL. 6", "General Health": "F", "Notes": ""}}, {"type": "Feature", "geometry": {"type": "Point", "coordinates": [-71.580164, 43.193232]}, "properties": {"id": 100, "Tree ID": "G-100", "Numerical ID": 100, "Botanical Name": "Stewartia pseudocamellia", "Common Name": "Japanese Stewartia", "DBH (inches)": 6.0, "DBH Info": "6", "General Health": "G", "Notes": ""}}, {"type": "Feature", "geometry": {"type": "Point", "coordinates": [-71.579969, 43.193]}, "properties": {"id": 104, "Tree ID": "G-104", "Numerical ID": 104, "Botanical Name": "Malus var.", "Common Name": "crabapple variety", "DBH (inches)": 3.0, "DBH Info": "3", "General Health": "VG", "Notes": ""}}, {"type": "Feature", "geometry": {"type": "Point", "coordinates": [-71.580323, 43.19307]}, "properties": {"id": 101, "Tree ID": "G-101", "Numerical ID": 101, "Botanical Name": "Viburnum sieboldii", "Common Name": "Siebold viburnum", "DBH (inches)": 8, "DBH Info": "multi 6", "General Health": "G", "Notes": ""}}, {"type": "Feature", "geometry": {"type": "Point", "coordinates": [-71.580242, 43.193005]}, "properties": {"id": 102, "Tree ID": "G-102", "Numerical ID": 102, "Botanical Name": "Oxydendrum arboreum", "Common Name": "Sourwood", "DBH (inches)": 12.0, "DBH Info": "12", "General Health": "G", "Notes": ""}}, {"type": "Feature", "geometry": {"type": "Point", "coordinates": [-71.580233, 43.192858]}, "properties": {"id": 103, "Tree ID": "G-103", "Numerical ID": 103, "Botanical Name": "Malus var.", "Common Name": "crabapple variety", "DBH (inches)": 15.0, "DBH Info": "15", "General Health": "VG", "Notes": ""}}, {"type": "Feature", "geometry": {"type": "Point", "coordinates": [-71.580079, 43.192826]}, "properties": {"id": 109, "Tree ID": "G-109", "Numerical ID": 109, "Botanical Name": "Acer rubrum", "Common Name": "Red Maple", "DBH (inches)": 8.0, "DBH Info": "8", "General Health": "E", "Notes": ""}}, {"type": "Feature", "geometry": {"type": "Point", "coordinates": [-71.580067, 43.192598]}, "properties": {"id": 105, "Tree ID": "G-105", "Numerical ID": 105, "Botanical Name": "Gleditsia triacanthos", "Common Name": "Honeylocust", "DBH (inches)": 18.0, "DBH Info": "18", "General Health": "VG", "Notes": ""}}, {"type": "Feature", "geometry": {"type": "Point", "coordinates": [-71.580197, 43.192496]}, "properties": {"id": 106, "Tree ID": "G-106", "Numerical ID": 106, "Botanical Name": "Gleditsia triacanthos", "Common Name": "Honeylocust", "DBH (inches)": 12.0, "DBH Info": "12", "General Health": "G", "Notes": ""}}, {"type": "Feature", "geometry": {"type": "Point", "coordinates": [-71.580374, 43.192625]}, "properties": {"id": 107, "Tree ID": "G-107", "Numerical ID": 107, "Botanical Name": "Gleditsia triacanthos", "Common Name": "Honeylocust", "DBH (inches)": 15.0, "DBH Info": "15", "General Health": "VG", "Notes": ""}}, {"type": "Feature", "geometry": {"type": "Point", "coordinates": [-71.580217, 43.192726]}, "properties": {"id": 108, "Tree ID": "G-108", "Numerical ID": 108, "Botanical Name": "Gleditsia triacanthos", "Common Name": "Honeylocust", "DBH (inches)": 18.0, "DBH Info": "18", "General Health": "VG", "Notes": ""}}, {"type": "Feature", "geometry": {"type": "Point", "coordinates": [-71.579797, 43.19284]}, "properties": {"id": 110, "Tree ID": "G-110", "Numerical ID": 110, "Botanical Name": "Acer saccharum", "Common Name": "Sugar Maple", "DBH (inches)": 12.0, "DBH Info": "12", "General Health": "E", "Notes": "Michael Alan Morphy"}}, {"type": "Feature", "geometry": {"type": "Point", "coordinates": [-71.579549, 43.192803]}, "properties": {"id": 112, "Tree ID": "G-112", "Numerical ID": 112, "Botanical Name": "Halesia carolina", "Common Name": "Carolina Silverbell", "DBH (inches)": 18.0, "DBH Info": "18", "General Health": "VG", "Notes": ""}}, {"type": "Feature", "geometry": {"type": "Point", "coordinates": [-71.579793, 43.192701]}, "properties": {"id": 111, "Tree ID": "G-111", "Numerical ID": 111, "Botanical Name": "Cladrastis kentukea", "Common Name": "Yellowwood", "DBH (inches)": 8, "DBH Info": "multi 12", "General Health": "VG", "Notes": ""}}, {"type": "Feature", "geometry": {"type": "Point", "coordinates": [-71.579772, 43.192559]}, "properties": {"id": 113, "Tree ID": "G-113", "Numerical ID": 113, "Botanical Name": "Gleditsia triacanthos", "Common Name": "Honeylocust", "DBH (inches)": 27.0, "DBH Info": "27", "General Health": "G", "Notes": ""}}, {"type": "Feature", "geometry": {"type": "Point", "coordinates": [-71.579871, 43.192558]}, "properties": {"id": 114, "Tree ID": "G-114", "Numerical ID": 114, "Botanical Name": "Cladrastis kentukea", "Common Name": "Yellowwood", "DBH (inches)": 8, "DBH Info": "multi 5", "General Health": "G", "Notes": ""}}, {"type": "Feature", "geometry": {"type": "Point", "coordinates": [-71.579823, 43.192436]}, "properties": {"id": 115, "Tree ID": "G-115", "Numerical ID": 115, "Botanical Name": "Cercidiphyllum japonicum", "Common Name": "Katsura Tree", "DBH (inches)": 12.0, "DBH Info": "12", "General Health": "E", "Notes": ""}}, {"type": "Feature", "geometry": {"type": "Point", "coordinates": [-71.579747, 43.192222]}, "properties": {"id": 116, "Tree ID": "G-116", "Numerical ID": 116, "Botanical Name": "Fagus sylvatica", "Common Name": "European Birch", "DBH (inches)": 24.0, "DBH Info": "24", "General Health": "E", "Notes": ""}}, {"type": "Feature", "geometry": {"type": "Point", "coordinates": [-71.579996, 43.191821]}, "properties": {"id": 124, "Tree ID": "G-124", "Numerical ID": 124, "Botanical Name": "Pinus strobus", "Common Name": "Eastern White Pine", "DBH (inches)": 15.0, "DBH Info": "15", "General Health": "F", "Notes": ""}}, {"type": "Feature", "geometry": {"type": "Point", "coordinates": [-71.579856, 43.191898]}, "properties": {"id": 118, "Tree ID": "G-118", "Numerical ID": 118, "Botanical Name": "Tsuga canadensis", "Common Name": "Canada Hemlock", "DBH (inches)": 8.0, "DBH Info": "8", "General Health": "VG", "Notes": ""}}, {"type": "Feature", "geometry": {"type": "Point", "coordinates": [-71.580183, 43.191763]}, "properties": {"id": 119, "Tree ID": "G-119", "Numerical ID": 119, "Botanical Name": "Pinus strobus", "Common Name": "Eastern White Pine", "DBH (inches)": 30.0, "DBH Info": "30", "General Health": "G", "Notes": ""}}, {"type": "Feature", "geometry": {"type": "Point", "coordinates": [-71.580118, 43.191803]}, "properties": {"id": 120, "Tree ID": "G-120", "Numerical ID": 120, "Botanical Name": "Pinus strobus", "Common Name": "Eastern White Pine", "DBH (inches)": 30.0, "DBH Info": "30", "General Health": "G", "Notes": ""}}, {"type": "Feature", "geometry": {"type": "Point", "coordinates": [-71.58008, 43.191751]}, "properties": {"id": 121, "Tree ID": "G-121", "Numerical ID": 121, "Botanical Name": "Acer rubrum", "Common Name": "Red Maple", "DBH (inches)": 24.0, "DBH Info": "24", "General Health": "F", "Notes": ""}}, {"type": "Feature", "geometry": {"type": "Point", "coordinates": [-71.580029, 43.191779]}, "properties": {"id": 122, "Tree ID": "G-122", "Numerical ID": 122, "Botanical Name": "Pinus strobus", "Common Name": "Eastern White Pine", "DBH (inches)": 30.0, "DBH Info": "30", "General Health": "F", "Notes": ""}}, {"type": "Feature", "geometry": {"type": "Point", "coordinates": [-71.580068, 43.191832]}, "properties": {"id": 123, "Tree ID": "G-123", "Numerical ID": 123, "Botanical Name": "Pinus strobus", "Common Name": "Eastern White Pine", "DBH (inches)": 30.0, "DBH Info": "30", "General Health": "F", "Notes": ""}}, {"type": "Feature", "geometry": {"type": "Point", "coordinates": [-71.579939, 43.191841]}, "properties": {"id": 117, "Tree ID": "G-117", "Numerical ID": 117, "Botanical Name": "Acer palmatum", "Common Name": "Japanese Maple", "DBH (inches)": 5.0, "DBH Info": "5", "General Health": "E", "Notes": ""}}, {"type": "Feature", "geometry": {"type": "Point", "coordinates": [-71.579988, 43.191895]}, "properties": {"id": 125, "Tree ID": "G-125", "Numerical ID": 125, "Botanical Name": "Pinus strobus", "Common Name": "Eastern White Pine", "DBH (inches)": 24.0, "DBH Info": "24", "General Health": "G", "Notes": ""}}, {"type": "Feature", "geometry": {"type": "Point", "coordinates": [-71.579942, 43.191932]}, "properties": {"id": 126, "Tree ID": "G-126", "Numerical ID": 126, "Botanical Name": "Pinus strobus", "Common Name": "Eastern White Pine", "DBH (inches)": 30.0, "DBH Info": "30", "General Health": "G", "Notes": ""}}, {"type": "Feature", "geometry": {"type": "Point", "coordinates": [-71.579863, 43.191978]}, "properties": {"id": 128, "Tree ID": "G-128", "Numerical ID": 128, "Botanical Name": "Pinus strobus", "Common Name": "Eastern White Pine", "DBH (inches)": 30.0, "DBH Info": "30", "General Health": "G", "Notes": ""}}, {"type": "Feature", "geometry": {"type": "Point", "coordinates": [-71.579621, 43.192159]}, "properties": {"id": 136, "Tree ID": "G-136", "Numerical ID": 136, "Botanical Name": "Pinus strobus", "Common Name": "Eastern White Pine", "DBH (inches)": 30.0, "DBH Info": "30", "General Health": "F", "Notes": ""}}, {"type": "Feature", "geometry": {"type": "Point", "coordinates": [-71.579654, 43.192138]}, "properties": {"id": 135, "Tree ID": "G-135", "Numerical ID": 135, "Botanical Name": "Pinus strobus", "Common Name": "Eastern White Pine", "DBH (inches)": 30.0, "DBH Info": "30", "General Health": "F", "Notes": ""}}, {"type": "Feature", "geometry": {"type": "Point", "coordinates": [-71.579687, 43.192115]}, "properties": {"id": 134, "Tree ID": "G-134", "Numerical ID": 134, "Botanical Name": "Pinus strobus", "Common Name": "Eastern White Pine", "DBH (inches)": 27.0, "DBH Info": "27", "General Health": "F", "Notes": ""}}, {"type": "Feature", "geometry": {"type": "Point", "coordinates": [-71.579715, 43.192092]}, "properties": {"id": 133, "Tree ID": "G-133", "Numerical ID": 133, "Botanical Name": "Pinus strobus", "Common Name": "Eastern White Pine", "DBH (inches)": 27.0, "DBH Info": "27", "General Health": "G", "Notes": ""}}, {"type": "Feature", "geometry": {"type": "Point", "coordinates": [-71.579744, 43.192068]}, "properties": {"id": 132, "Tree ID": "G-132", "Numerical ID": 132, "Botanical Name": "Pinus strobus", "Common Name": "Eastern White Pine", "DBH (inches)": 24.0, "DBH Info": "24", "General Health": "G", "Notes": ""}}, {"type": "Feature", "geometry": {"type": "Point", "coordinates": [-71.579773, 43.192047]}, "properties": {"id": 131, "Tree ID": "G-131", "Numerical ID": 131, "Botanical Name": "Pinus strobus", "Common Name": "Eastern White Pine", "DBH (inches)": 15.0, "DBH Info": "15", "General Health": "G", "Notes": ""}}, {"type": "Feature", "geometry": {"type": "Point", "coordinates": [-71.579804, 43.192025]}, "properties": {"id": 130, "Tree ID": "G-130", "Numerical ID": 130, "Botanical Name": "Pinus strobus", "Common Name": "Eastern White Pine", "DBH (inches)": 12.0, "DBH Info": "12", "General Health": "G", "Notes": ""}}, {"type": "Feature", "geometry": {"type": "Point", "coordinates": [-71.579833, 43.192001]}, "properties": {"id": 129, "Tree ID": "G-129", "Numerical ID": 129, "Botanical Name": "Pinus strobus", "Common Name": "Eastern White Pine", "DBH (inches)": 30.0, "DBH Info": "30", "General Health": "G", "Notes": ""}}, {"type": "Feature", "geometry": {"type": "Point", "coordinates": [-71.579898, 43.191959]}, "properties": {"id": 127, "Tree ID": "G-127", "Numerical ID": 127, "Botanical Name": "Pinus strobus", "Common Name": "Eastern White Pine", "DBH (inches)": 30.0, "DBH Info": "30", "General Health": "G", "Notes": ""}}, {"type": "Feature", "geometry": {"type": "Point", "coordinates": [-71.579568, 43.192118]}, "properties": {"id": 137, "Tree ID": "G-137", "Numerical ID": 137, "Botanical Name": "Pinus strobus", "Common Name": "Eastern White Pine", "DBH (inches)": 36.0, "DBH Info": "36", "General Health": "F", "Notes": ""}}, {"type": "Feature", "geometry": {"type": "Point", "coordinates": [-71.579621, 43.192073]}, "properties": {"id": 138, "Tree ID": "G-138", "Numerical ID": 138, "Botanical Name": "Carya ovata", "Common Name": "Shagbark Hickory", "DBH (inches)": 15.0, "DBH Info": "15", "General Health": "VG", "Notes": ""}}, {"type": "Feature", "geometry": {"type": "Point", "coordinates": [-71.579684, 43.192026]}, "properties": {"id": 139, "Tree ID": "G-139", "Numerical ID": 139, "Botanical Name": "Cornus florida", "Common Name": "Flowering Dogwood", "DBH (inches)": 6.0, "DBH Info": "6", "General Health": "G", "Notes": ""}}, {"type": "Feature", "geometry": {"type": "Point", "coordinates": [-71.579554, 43.192189]}, "properties": {"id": 140, "Tree ID": "G-140", "Numerical ID": 140, "Botanical Name": "Pinus strobus", "Common Name": "Eastern White Pine", "DBH (inches)": 30.0, "DBH Info": "30", "General Health": "F", "Notes": ""}}, {"type": "Feature", "geometry": {"type": "Point", "coordinates": [-71.579462, 43.192195]}, "properties": {"id": 141, "Tree ID": "G-141", "Numerical ID": 141, "Botanical Name": "Acer rubrum", "Common Name": "Red Maple", "DBH (inches)": 15.0, "DBH Info": "15", "General Health": "P", "Notes": ""}}, {"type": "Feature", "geometry": {"type": "Point", "coordinates": [-71.57941, 43.192313]}, "properties": {"id": 144, "Tree ID": "G-144", "Numerical ID": 144, "Botanical Name": "Quercus alba", "Common Name": "White Oak", "DBH (inches)": 36.0, "DBH Info": "36", "General Health": "VG", "Notes": ""}}, {"type": "Feature", "geometry": {"type": "Point", "coordinates": [-71.579348, 43.192356]}, "properties": {"id": 145, "Tree ID": "G-145", "Numerical ID": 145, "Botanical Name": "Pinus strobus", "Common Name": "Eastern White Pine", "DBH (inches)": 36.0, "DBH Info": "36", "General Health": "G", "Notes": ""}}, {"type": "Feature", "geometry": {"type": "Point", "coordinates": [-71.579276, 43.192405]}, "properties": {"id": 146, "Tree ID": "G-146", "Numerical ID": 146, "Botanical Name": "Pinus strobus", "Common Name": "Eastern White Pine", "DBH (inches)": 24.0, "DBH Info": "24", "General Health": "G", "Notes": ""}}, {"type": "Feature", "geometry": {"type": "Point", "coordinates": [-71.57923, 43.192374]}, "properties": {"id": 147, "Tree ID": "G-147", "Numerical ID": 147, "Botanical Name": "Pinus strobus", "Common Name": "Eastern White Pine", "DBH (inches)": 24.0, "DBH Info": "24", "General Health": "G", "Notes": ""}}, {"type": "Feature", "geometry": {"type": "Point", "coordinates": [-71.579176, 43.192414]}, "properties": {"id": 148, "Tree ID": "G-148", "Numerical ID": 148, "Botanical Name": "Quercus rubra", "Common Name": "Red Oak", "DBH (inches)": 10.0, "DBH Info": "10", "General Health": "E", "Notes": ""}}, {"type": "Feature", "geometry": {"type": "Point", "coordinates": [-71.57912, 43.192454]}, "properties": {"id": 149, "Tree ID": "G-149", "Numerical ID": 149, "Botanical Name": "Amelanchier laevis", "Common Name": "Serviceberry", "DBH (inches)": 8.0, "DBH Info": "8", "General Health": "VG", "Notes": ""}}, {"type": "Feature", "geometry": {"type": "Point", "coordinates": [-71.57906, 43.192495]}, "properties": {"id": 151, "Tree ID": "G-151", "Numerical ID": 151, "Botanical Name": "Pinus strobus", "Common Name": "Eastern White Pine", "DBH (inches)": 36.0, "DBH Info": "36", "General Health": "G", "Notes": ""}}, {"type": "Feature", "geometry": {"type": "Point", "coordinates": [-71.57919, 43.192483]}, "properties": {"id": 150, "Tree ID": "G-150", "Numerical ID": 150, "Botanical Name": "Pinus strobus", "Common Name": "Eastern White Pine", "DBH (inches)": 36.0, "DBH Info": "36", "General Health": "G", "Notes": ""}}, {"type": "Feature", "geometry": {"type": "Point", "coordinates": [-71.579534, 43.192244]}, "properties": {"id": 142, "Tree ID": "G-142", "Numerical ID": 142, "Botanical Name": "Pinus strobus", "Common Name": "Eastern White Pine", "DBH (inches)": 36.0, "DBH Info": "36", "General Health": "G", "Notes": ""}}, {"type": "Feature", "geometry": {"type": "Point", "coordinates": [-71.579453, 43.19226]}, "properties": {"id": 143, "Tree ID": "G-143", "Numerical ID": 143, "Botanical Name": "Pinus strobus", "Common Name": "Eastern White Pine", "DBH (inches)": 36.0, "DBH Info": "36", "General Health": "G", "Notes": ""}}]}